[
  { "city": "Delhi",            "lat": 28.66,  "lon": 77.23,   "pm25": 92, "region": "South Asia",       "population": 30.3 },
  { "city": "Beijing",          "lat": 39.90,  "lon": 116.40,  "pm25": 78, "region": "East Asia",        "population": 21.5 },
  { "city": "Lahore",           "lat": 31.55,  "lon": 74.34,   "pm25": 85, "region": "South Asia",       "population": 13.0 },
  { "city": "Mexico City",      "lat": 19.43,  "lon": -99.13,  "pm25": 41, "region": "North America",    "population": 9.2 },
  { "city": "Los Angeles",      "lat": 34.05,  "lon": -118.25, "pm25": 23, "region": "North America",    "population": 4.0 },
  { "city": "London",           "lat": 51.51,  "lon": -0.13,   "pm25": 14, "region": "Western Europe",  "population": 9.0 },
  { "city": "Sydney",           "lat": -33.86, "lon": 151.20,  "pm25": 8,  "region": "Oceania",        "population": 5.3 },
  { "city": "Tokyo",            "lat": 35.68,  "lon": 139.76,  "pm25": 13, "region": "East Asia",        "population": 14.0 },
  { "city": "Johannesburg",     "lat": -26.20, "lon": 28.04,   "pm25": 27, "region": "Africa",          "population": 5.7 },
  { "city": "Paris",            "lat": 48.85,  "lon": 2.35,    "pm25": 15, "region": "Western Europe",  "population": 2.1 },

  { "city": "New York City",    "lat": 40.7128,"lon": -74.0060,"pm25": 12, "region": "North America",    "population": 8.8 },
  { "city": "Chicago",          "lat": 41.8781,"lon": -87.6298,"pm25": 14, "region": "North America",    "population": 2.7 },
  { "city": "Houston",          "lat": 29.7604,"lon": -95.3698,"pm25": 16, "region": "North America",    "population": 2.3 },
  { "city": "Toronto",          "lat": 43.6511,"lon": -79.3470,"pm25": 10, "region": "North America",    "population": 2.9 },
  { "city": "Dallas",           "lat": 32.7767,"lon": -96.7970,"pm25": 15, "region": "North America",    "population": 1.3 },

  { "city": "Berlin",           "lat": 52.5200,"lon": 13.4050, "pm25": 12, "region": "Western Europe",  "population": 3.6 },
  { "city": "Madrid",           "lat": 40.4168,"lon": -3.7038, "pm25": 16, "region": "Western Europe",  "population": 3.2 },
  { "city": "Rome",             "lat": 41.9028,"lon": 12.4964, "pm25": 18, "region": "Western Europe",  "population": 2.8 },
  { "city": "Barcelona",        "lat": 41.3874,"lon": 2.1686,  "pm25": 15, "region": "Western Europe",  "population": 1.6 },
  { "city": "Amsterdam",        "lat": 52.3676,"lon": 4.9041,  "pm25": 13, "region": "Western Europe",  "population": 0.9 },
  { "city": "Munich",           "lat": 48.1351,"lon": 11.5820, "pm25": 14, "region": "Western Europe",  "population": 1.5 },

  { "city": "Moscow",           "lat": 55.7558,"lon": 37.6173, "pm25": 25, "region": "Eastern Europe",  "population": 12.6 },
  { "city": "Saint Petersburg", "lat": 59.9311,"lon": 30.3609, "pm25": 20, "region": "Eastern Europe",  "population": 5.4 },
  { "city": "Warsaw",           "lat": 52.2297,"lon": 21.0122, "pm25": 19, "region": "Eastern Europe",  "population": 1.8 },
  { "city": "Kyiv",             "lat": 50.4501,"lon": 30.5234, "pm25": 24, "region": "Eastern Europe",  "population": 2.9 },
  { "city": "Budapest",         "lat": 47.4979,"lon": 19.0402, "pm25": 22, "region": "Eastern Europe",  "population": 1.75 },
  { "city": "Bucharest",        "lat": 44.4268,"lon": 26.1025, "pm25": 26, "region": "Eastern Europe",  "population": 1.8 },
  { "city": "Prague",           "lat": 50.0755,"lon": 14.4378, "pm25": 18, "region": "Eastern Europe",  "population": 1.3 },

  { "city": "Istanbul",         "lat": 41.0082,"lon": 28.9784, "pm25": 25, "region": "Middle East",     "population": 15.5 },
  { "city": "Tehran",           "lat": 35.6892,"lon": 51.3890, "pm25": 85, "region": "Middle East",     "population": 9.0 },
  { "city": "Baghdad",          "lat": 33.3152,"lon": 44.3661, "pm25": 80, "region": "Middle East",     "population": 7.2 },
  { "city": "Riyadh",           "lat": 24.7136,"lon": 46.6753, "pm25": 70, "region": "Middle East",     "population": 7.6 },
  { "city": "Dubai",            "lat": 25.2048,"lon": 55.2708, "pm25": 60, "region": "Middle East",     "population": 3.4 },
  { "city": "Cairo",            "lat": 30.0444,"lon": 31.2357, "pm25": 90, "region": "Middle East",     "population": 20.5 },

  { "city": "Mumbai",           "lat": 19.0760,"lon": 72.8777, "pm25": 70, "region": "South Asia",       "population": 20.0 },
  { "city": "Karachi",          "lat": 24.8607,"lon": 67.0011, "pm25": 80, "region": "South Asia",       "population": 16.0 },
  { "city": "Dhaka",            "lat": 23.8103,"lon": 90.4125, "pm25": 85, "region": "South Asia",       "population": 21.0 },
  { "city": "Bangalore",        "lat": 12.9716,"lon": 77.5946, "pm25": 60, "region": "South Asia",       "population": 12.3 },
  { "city": "Kolkata",          "lat": 22.5726,"lon": 88.3639, "pm25": 75, "region": "South Asia",       "population": 14.9 },
  { "city": "Chennai",          "lat": 13.0827,"lon": 80.2707, "pm25": 58, "region": "South Asia",       "population": 10.9 },

  { "city": "Jakarta",          "lat": -6.2088,"lon": 106.8456,"pm25": 60, "region": "Southeast Asia",  "population": 10.7 },
  { "city": "Manila",           "lat": 14.5995,"lon": 120.9842,"pm25": 65, "region": "Southeast Asia",  "population": 13.0 },
  { "city": "Bangkok",          "lat": 13.7563,"lon": 100.5018,"pm25": 55, "region": "Southeast Asia",  "population": 10.7 },
  { "city": "Ho Chi Minh City", "lat": 10.8231,"lon": 106.6297,"pm25": 50, "region": "Southeast Asia",  "population": 8.9 },
  { "city": "Kuala Lumpur",     "lat": 3.1390, "lon": 101.6869,"pm25": 40, "region": "Southeast Asia",  "population": 1.8 },
  { "city": "Singapore",        "lat": 1.3521, "lon": 103.8198,"pm25": 15, "region": "Southeast Asia",  "population": 5.7 },
  { "city": "Hanoi",            "lat": 21.0278,"lon": 105.8342,"pm25": 70, "region": "Southeast Asia",  "population": 7.7 },

  { "city": "Shanghai",         "lat": 31.2304,"lon": 121.4737,"pm25": 65, "region": "East Asia",        "population": 26.3 },
  { "city": "Guangzhou",        "lat": 23.1291,"lon": 113.2644,"pm25": 55, "region": "East Asia",        "population": 14.0 },
  { "city": "Shenzhen",         "lat": 22.5429,"lon": 114.0596,"pm25": 50, "region": "East Asia",        "population": 12.6 },
  { "city": "Seoul",            "lat": 37.5665,"lon": 126.9780,"pm25": 40, "region": "East Asia",        "population": 9.7 },
  { "city": "Osaka",            "lat": 34.6937,"lon": 135.5023,"pm25": 20, "region": "East Asia",        "population": 2.7 },

  { "city": "Melbourne",        "lat": -37.8136,"lon": 144.9631,"pm25": 10, "region": "Oceania",        "population": 4.9 },
  { "city": "Brisbane",         "lat": -27.4698,"lon": 153.0251,"pm25": 12, "region": "Oceania",        "population": 2.3 },
  { "city": "Auckland",         "lat": -36.8485,"lon": 174.7633,"pm25": 9,  "region": "Oceania",        "population": 1.6 },

  { "city": "Lagos",            "lat": 6.5244, "lon": 3.3792,  "pm25": 75, "region": "Africa",          "population": 14.0 },
  { "city": "Nairobi",          "lat": -1.2921,"lon": 36.8219, "pm25": 25, "region": "Africa",          "population": 4.4 },

  { "city": "Sao Paulo",        "lat": -23.5505, "lon": -46.6333, "pm25": 30, "region": "South America",  "population": 22.0 },
  { "city": "Rio de Janeiro",   "lat": -22.9068, "lon": -43.1729, "pm25": 35, "region": "South America",  "population": 13.5 },
  { "city": "Buenos Aires",     "lat": -34.6037, "lon": -58.3816, "pm25": 28, "region": "South America",  "population": 15.2 },
  { "city": "Lima",             "lat": -12.0464, "lon": -77.0428, "pm25": 40, "region": "South America",  "population": 11.0 },
  { "city": "Bogota",           "lat": 4.7110,   "lon": -74.0721, "pm25": 45, "region": "South America",  "population": 10.9 },
  { "city": "Santiago",         "lat": -33.4489, "lon": -70.6693, "pm25": 25, "region": "South America",  "population": 7.1 },
  { "city": "Caracas",          "lat": 10.4806,  "lon": -66.9036, "pm25": 50, "region": "South America",  "population": 5.3 }
]
